[
  {
    "address_2": null,
    "address_3": null,
    "brewery_type": "brewpub",
    "city": "San Luis Obispo",
    "country": "United States",
    "county_province": null,
    "created_at": "2018-07-24T01:32:51.264Z",
    "id": 281,
    "latitude": "35.2467277959184",
    "longitude": "-120.670637530612",
    "name": "7 Sisters Brewing Co",
    "phone": "8058687133",
    "postal_code": "93401-7082",
    "state": "California",
    "street": "181 Tank Farm Rd Ste 110",
    "updated_at": "2018-08-23T23:23:55.334Z",
    "website_url": "http://www.7sistersbrewing.com"
  },{"id":286,"name":"Abnormal Beer Company","brewery_type":"micro","street":"16990 Via Tazon Ste 123","address_2":null,"address_3":null,"city":"San Diego","state":"California","county_province":null,"postal_code":"92127-1649","country":"United States","longitude":"-117.08575","latitude":"33.02391","phone":"8586182463","website_url":"http://abnormalbeer.co","updated_at":"2018-08-23T23:24:00.025Z","created_at":"2018-07-24T01:32:51.325Z"},{"id":305,"name":"Altamont Beer Works","brewery_type":"micro","street":"2402 Research Dr","address_2":null,"address_3":null,"city":"Livermore","state":"California","county_province":null,"postal_code":"94550-3850","country":"United States","longitude":"-121.721097428074","latitude":"37.6783911404914","phone":"9254432337","website_url":"http://www.altamontbeerworks.com","updated_at":"2018-08-23T23:24:16.819Z","created_at":"2018-07-24T01:32:51.568Z"},{"id":329,"name":"Auburn Alehouse","brewery_type":"brewpub","street":"289 Washington St","address_2":null,"address_3":null,"city":"Auburn","state":"California","county_province":null,"postal_code":"95603-5036","country":"United States","longitude":"-121.078958250811","latitude":"38.8961210674875","phone":"5308852537","website_url":"http://www.auburnalehouse.com","updated_at":"2018-08-23T23:24:41.928Z","created_at":"2018-07-24T01:32:51.916Z"},{"id":333,"name":"Back Street Brewery \u0026 Tasting Room","brewery_type":"micro","street":"1884 S Santa Cruz St","address_2":null,"address_3":null,"city":"Anaheim","state":"California","county_province":null,"postal_code":"92805-6726","country":"United States","longitude":"-117.896089444444","latitude":"33.7998367777778","phone":"6572364050","website_url":"http://www.backstreetbrew.com","updated_at":"2018-08-23T23:24:45.724Z","created_at":"2018-07-24T01:32:51.974Z"},{"id":361,"name":"Bear Republic Brewing Co Pub \u0026 Restaurant - Lakeside","brewery_type":"brewpub","street":"5000 Roberts Lake Rd","address_2":null,"address_3":null,"city":"Rohnert Park","state":"California","county_province":null,"postal_code":"94928","country":"United States","longitude":"-122.7101405","latitude":"38.3649703","phone":"7075852722","website_url":"http://bearrepublic.com","updated_at":"2018-08-23T23:25:11.314Z","created_at":"2018-07-24T01:32:52.349Z"},{"id":376,"name":"Bird Street Brewing","brewery_type":"micro","street":"242 Heinlen St","address_2":null,"address_3":null,"city":"Lemoore","state":"California","county_province":null,"postal_code":"93245-2947","country":"United States","longitude":"-119.784711","latitude":"36.3014675555556","phone":"5593094649","website_url":"http://www.birdstreetbrewing.com","updated_at":"2018-08-23T23:25:24.815Z","created_at":"2018-07-24T01:32:52.533Z"},{"id":385,"name":"Black Hammer Brewing","brewery_type":"micro","street":"544 Bryant St","address_2":null,"address_3":null,"city":"San Francisco","state":"California","county_province":null,"postal_code":"94107-1217","country":"United States","longitude":"-122.3969947","latitude":"37.780655","phone":"4155002273","website_url":"http://www.blackhammerbrewing.com","updated_at":"2018-08-23T23:25:33.033Z","created_at":"2018-07-24T01:32:52.642Z"},{"id":410,"name":"Brewbakers Brewing Co","brewery_type":"brewpub","street":"219 E Main St","address_2":null,"address_3":null,"city":"Visalia","state":"California","county_province":null,"postal_code":"93291-6355","country":"United States","longitude":"-119.2906961","latitude":"36.3300786","phone":"5596272739","website_url":"http://www.brewbakersbrewingco.com","updated_at":"2018-08-23T23:25:54.818Z","created_at":"2018-07-24T01:32:52.944Z"},{"id":425,"name":"Brewery in Planning - Los Angeles","brewery_type":"planning","street":"","address_2":null,"address_3":null,"city":"Los Angeles","state":"California","county_province":null,"postal_code":"90049-1620","country":"United States","longitude":"-118.2427669","latitude":"34.0536834","phone":"3107796045","website_url":"","updated_at":"2018-08-23T23:26:04.273Z","created_at":"2018-07-24T01:32:53.127Z"},{"id":430,"name":"Brewery in Planning - San Diego","brewery_type":"planning","street":"","address_2":null,"address_3":null,"city":"San Diego","state":"California","county_province":null,"postal_code":"92121-4396","country":"United States","longitude":"-117.1627714","latitude":"32.7174209","phone":"8588882188","website_url":"http://WWW.gravityheights.com","updated_at":"2018-08-23T23:26:06.455Z","created_at":"2018-07-24T01:32:53.189Z"},{"id":437,"name":"Brewery Twenty Five","brewery_type":"micro","street":"106 3rd St","address_2":null,"address_3":null,"city":"Hollister","state":"California","county_province":null,"postal_code":"95023","country":"United States","longitude":"-121.400836918367","latitude":"36.8535938163265","phone":"8316367640","website_url":"http://www.brewerytwentyfive.com","updated_at":"2018-08-23T23:26:09.967Z","created_at":"2018-07-24T01:32:53.273Z"},{"id":456,"name":"Camino Brewing Co LLC","brewery_type":"micro","street":"718 S 1st St","address_2":null,"address_3":null,"city":"San Jose","state":"California","county_province":null,"postal_code":"95113","country":"United States","longitude":"-121.882347823612","latitude":"37.3253017839889","phone":"","website_url":"http://www.caminobrewing.com","updated_at":"2018-08-23T23:26:25.248Z","created_at":"2018-07-24T01:32:53.511Z"},{"id":479,"name":"Chula Vista Brewery","brewery_type":"micro","street":"294 Third Ave","address_2":null,"address_3":null,"city":"Chula Vista","state":"California","county_province":null,"postal_code":"91910-2701","country":"United States","longitude":"-117.080369","latitude":"32.641495","phone":"6196168806","website_url":"http://www.chulavistabrewery.com","updated_at":"2018-08-23T23:26:42.768Z","created_at":"2018-07-24T01:32:53.796Z"},{"id":489,"name":"Cloverdale Ale Company's Ruth McGowan's Brewpub","brewery_type":"brewpub","street":"131 E 1st St","address_2":null,"address_3":null,"city":"Cloverdale","state":"California","county_province":null,"postal_code":"95425-3701","country":"United States","longitude":"-123.016572852146","latitude":"38.8053232210103","phone":"7078949610","website_url":"http://www.ruthmcgowansbrewpub.com","updated_at":"2018-08-23T23:26:51.276Z","created_at":"2018-07-24T01:32:53.922Z"},{"id":508,"name":"Craftsman Brewing Co","brewery_type":"micro","street":"1260 Lincoln Ave Ste 100","address_2":null,"address_3":null,"city":"Pasadena","state":"California","county_province":null,"postal_code":"91103-2465","country":"United States","longitude":"-118.1595567","latitude":"34.1674435","phone":"6262962537","website_url":"http://www.craftsmanbrewing.com","updated_at":"2018-08-23T23:27:07.240Z","created_at":"2018-07-24T01:32:54.192Z"},{"id":525,"name":"Devil's Potion Brewing Company LLC","brewery_type":"planning","street":"","address_2":null,"address_3":null,"city":"Escondido","state":"California","county_province":null,"postal_code":"92026-3187","country":"United States","longitude":"-117.0814849","latitude":"33.1216751","phone":"7605329091","website_url":"http://www.devilspotion.com","updated_at":"2018-08-23T23:27:21.742Z","created_at":"2018-07-24T01:32:54.405Z"},{"id":543,"name":"Dry River Brewing","brewery_type":"micro","street":"671 S Anderson St","address_2":null,"address_3":null,"city":"Los Angeles","state":"California","county_province":null,"postal_code":"90023-1110","country":"United States","longitude":"-118.223301521739","latitude":"34.0363873913043","phone":"2133755235","website_url":"http://www.dryriverbrewing.com","updated_at":"2018-08-23T23:27:38.017Z","created_at":"2018-07-24T01:32:54.647Z"},{"id":562,"name":"Eight Bridges Brewing","brewery_type":"micro","street":"332 Earhart Way","address_2":null,"address_3":null,"city":"Livermore","state":"California","county_province":null,"postal_code":"94551-9309","country":"United States","longitude":"-121.814589292069","latitude":"37.6989500360251","phone":"9259619160","website_url":"http://www.eightbridgesbrewing.com","updated_at":"2018-08-23T23:27:54.121Z","created_at":"2018-07-24T01:32:54.897Z"},{"id":573,"name":"Eppig Brewing","brewery_type":"micro","street":"3052 El Cajon Blvd Ste 103","address_2":null,"address_3":null,"city":"San Diego","state":"California","county_province":null,"postal_code":"92104-1399","country":"United States","longitude":"-117.128732","latitude":"32.755723","phone":"6195011840","website_url":"http://www.eppigbrewing.com","updated_at":"2018-08-23T23:28:03.844Z","created_at":"2018-07-24T01:32:55.121Z"},{"id":574,"name":"Escape Craft Brewery","brewery_type":"micro","street":"721 Nevada St Ste 401","address_2":null,"address_3":null,"city":"Redlands","state":"California","county_province":null,"postal_code":"92373-8053","country":"United States","longitude":"-117.217577166632","latitude":"34.0603401026307","phone":"9097133727","website_url":"http://www.escapecraftbrewery.com","updated_at":"2018-08-23T23:28:04.869Z","created_at":"2018-07-24T01:32:55.136Z"},{"id":592,"name":"Fieldwork Brewing Co","brewery_type":"regional","street":"1160 6th St","address_2":null,"address_3":null,"city":"Berkeley","state":"California","county_province":null,"postal_code":"94710-1247","country":"United States","longitude":"-122.302214696327","latitude":"37.88157297059","phone":"5108981203","website_url":"http://www.fieldworkbrewing.com","updated_at":"2018-08-23T23:28:19.100Z","created_at":"2018-07-24T01:32:55.370Z"},{"id":612,"name":"Fort Point Beer Company","brewery_type":"regional","street":"644 Mason St","address_2":null,"address_3":null,"city":"San Francisco","state":"California","county_province":null,"postal_code":"94129-1600","country":"United States","longitude":"-122.410227755102","latitude":"37.789461244898","phone":"4159064021","website_url":"http://www.fortpointbeer.com","updated_at":"2018-08-23T23:28:36.026Z","created_at":"2018-07-24T01:32:55.631Z"},{"id":615,"name":"Fountainhead Brewing Co","brewery_type":"micro","street":"4621 24th St","address_2":null,"address_3":null,"city":"Sacramento","state":"California","county_province":null,"postal_code":"95822-1412","country":"United States","longitude":"-121.483117319123","latitude":"38.5332279038371","phone":"9162284610","website_url":"http://www.fountainheadbrewingco.com","updated_at":"2018-08-23T23:28:38.770Z","created_at":"2018-07-24T01:32:55.673Z"},{"id":623,"name":"Geartooth AleWerks","brewery_type":"micro","street":"1635 S 7th St","address_2":null,"address_3":null,"city":"San Jose","state":"California","county_province":null,"postal_code":"95112-5932","country":"United States","longitude":"-121.866477333785","latitude":"37.315251291037","phone":"4084832679","website_url":"http://www.geartoothalewerks.com","updated_at":"2018-08-23T23:28:45.233Z","created_at":"2018-07-24T01:32:55.783Z"},{"id":633,"name":"Golden State Brewery","brewery_type":"micro","street":"1252 Memorex Dr","address_2":null,"address_3":null,"city":"Santa Clara","state":"California","county_province":null,"postal_code":"95050-2812","country":"United States","longitude":"-121.950316757586","latitude":"37.3625383916082","phone":"4087272337","website_url":"http://www.goldenstate.beer","updated_at":"2018-08-23T23:28:53.181Z","created_at":"2018-07-24T01:32:55.910Z"},{"id":654,"name":"Hangar 24 Craft Brewery","brewery_type":"regional","street":"1710 Sessums Dr","address_2":null,"address_3":null,"city":"Redlands","state":"California","county_province":null,"postal_code":"92374-1909","country":"United States","longitude":"-117.1419134","latitude":"34.0831712","phone":"9093891400","website_url":"http://www.hangar24brewery.com","updated_at":"2018-08-23T23:29:10.400Z","created_at":"2018-07-24T01:32:56.216Z"},{"id":667,"name":"Hermitage Brewing Company","brewery_type":"regional","street":"1627 S 7th St","address_2":null,"address_3":null,"city":"San Jose","state":"California","county_province":null,"postal_code":"95112-5932","country":"United States","longitude":"-121.866525688348","latitude":"37.3153140881948","phone":"4082910966","website_url":"http://www.hermitagebrewing.com","updated_at":"2018-08-23T23:29:21.773Z","created_at":"2018-07-24T01:32:56.418Z"},{"id":669,"name":"High Water Brewing","brewery_type":"proprietor","street":"","address_2":null,"address_3":null,"city":"Stockton","state":"California","county_province":null,"postal_code":"95204-2943","country":"United States","longitude":"-121.2907796","latitude":"37.9577016","phone":"5304409098","website_url":"http://www.highwaterbrewing.com","updated_at":"2018-08-23T23:29:23.046Z","created_at":"2018-07-24T01:32:56.445Z"},{"id":682,"name":"Hop Secret Brewing Co","brewery_type":"micro","street":"162 W Pomona Ave","address_2":null,"address_3":null,"city":"Monrovia","state":"California","county_province":null,"postal_code":"91016-4558","country":"United States","longitude":"-118.001973040816","latitude":"34.134155","phone":"","website_url":"http://www.hopsecretbrewing.com","updated_at":"2018-08-23T23:29:32.990Z","created_at":"2018-07-24T01:32:56.614Z"}]